[
  {"name": "Kutch Coast", "state": "Gujarat", "lat": 23.6102, "lng": 70.0026},
  {"name": "Gulf of Khambhat", "state": "Gujarat", "lat": 21.5678, "lng": 72.1916},
  {"name": "Diu Coast", "state": "Diu", "lat": 20.7142, "lng": 70.9900},
  {"name": "Porbandar", "state": "Gujarat", "lat": 21.6410, "lng": 69.6093},
  {"name": "Jamnagar", "state": "Gujarat", "lat": 22.4707, "lng": 70.0577},
  {"name": "Mumbai Coast", "state": "Maharashtra", "lat": 19.0760, "lng": 72.8777},
  {"name": "Ratnagiri", "state": "Maharashtra", "lat": 16.9902, "lng": 73.3121},
  {"name": "Goa Coast", "state": "Goa", "lat": 15.2993, "lng": 74.1240},
  {"name": "Karwar", "state": "Karnataka", "lat": 14.8000, "lng": 74.1333},
  {"name": "Mangalore Coast", "state": "Karnataka", "lat": 12.9141, "lng": 74.8560},
  {"name": "Kochi", "state": "Kerala", "lat": 9.9312, "lng": 76.2673},
  {"name": "Kollam", "state": "Kerala", "lat": 8.8932, "lng": 76.6141},
  {"name": "Kanyakumari Coast", "state": "Tamil Nadu", "lat": 8.0883, "lng": 77.5385},
  {"name": "Chennai Coast", "state": "Tamil Nadu", "lat": 13.0827, "lng": 80.2707},
  {"name": "Puducherry", "state": "Puducherry", "lat": 11.9139, "lng": 79.8145},
  {"name": "Visakhapatnam Coast", "state": "Andhra Pradesh", "lat": 17.6868, "lng": 83.2185},
  {"name": "Kakinada", "state": "Andhra Pradesh", "lat": 17.0167, "lng": 82.2167},
  {"name": "Machilipatnam", "state": "Andhra Pradesh", "lat": 16.1925, "lng": 81.1389},
  {"name": "Paradip", "state": "Odisha", "lat": 20.3160, "lng": 86.6100},
  {"name": "Puri Coast", "state": "Odisha", "lat": 19.8135, "lng": 85.8312},
  {"name": "Digha", "state": "West Bengal", "lat": 21.6825, "lng": 87.7461},
  {"name": "Haldia", "state": "West Bengal", "lat": 22.0662, "lng": 88.0693},
  {"name": "Kolkata (Hooghly River mouth)", "state": "West Bengal", "lat": 22.5726, "lng": 88.3639},
  {"name": "Port Blair", "state": "Andaman & Nicobar", "lat": 11.6234, "lng": 92.7265},
  {"name": "Kavaratti", "state": "Lakshadweep", "lat": 10.5667, "lng": 72.6420}
]
